16-Nov-2006 10:09:39 AM,$GPGGA,230944,3748.2200,S,14501.7667,E,1,08,01.95,000087.1,M,-001.8,M,,*71
16-Nov-2006 10:09:41 AM,$GPGGA,230946,3748.2235,S,14501.7660,E,1,06,03.12,000087.0,M,-001.8,M,,*70
16-Nov-2006 10:09:43 AM,$GPGGA,230948,3748.2257,S,14501.7651,E,1,07,02.15,000086.8,M,-001.8,M,,*76
16-Nov-2006 10:09:45 AM,$GPGGA,230950,3748.2272,S,14501.7643,E,1,07,02.15,000086.9,M,-001.8,M,,*7A
16-Nov-2006 10:09:47 AM,$GPGGA,230952,3748.2291,S,14501.7642,E,1,06,03.11,000087.0,M,-001.8,M,,*78
16-Nov-2006 10:09:49 AM,$GPGGA,230954,3748.2316,S,14501.7640,E,1,07,02.15,000086.9,M,-001.8,M,,*7E
16-Nov-2006 10:09:51 AM,$GPGGA,230956,3748.2340,S,14501.7638,E,1,07,02.15,000086.8,M,-001.8,M,,*71
16-Nov-2006 10:09:53 AM,$GPGGA,230958,3748.2362,S,14501.7637,E,1,06,03.11,000086.8,M,-001.8,M,,*74
16-Nov-2006 10:09:55 AM,$GPGGA,231000,3748.2388,S,14501.7634,E,1,06,03.11,000087.1,M,-001.8,M,,*7E
16-Nov-2006 10:09:57 AM,$GPGGA,231002,3748.2423,S,14501.7630,E,1,07,02.66,000087.2,M,-001.8,M,,*7D
16-Nov-2006 10:10:00 AM,$GPGGA,231005,3748.2492,S,14501.7620,E,1,09,01.56,000087.2,M,-001.8,M,,*7F
16-Nov-2006 10:10:02 AM,$GPGGA,231007,3748.2551,S,14501.7611,E,1,09,01.56,000086.9,M,-001.8,M,,*7B
16-Nov-2006 10:10:06 AM,$GPGGA,231011,3748.2666,S,14501.7586,E,1,08,01.80,000086.5,M,-001.8,M,,*70
16-Nov-2006 10:10:08 AM,$GPGGA,231013,3748.2711,S,14501.7572,E,1,08,01.77,000086.7,M,-001.8,M,,*72
16-Nov-2006 10:10:10 AM,$GPGGA,231015,3748.2764,S,14501.7563,E,1,08,01.77,000086.8,M,-001.8,M,,*79
16-Nov-2006 10:10:12 AM,$GPGGA,231017,3748.2821,S,14501.7554,E,1,08,01.77,000086.9,M,-001.8,M,,*70
16-Nov-2006 10:10:14 AM,$GPGGA,231019,3748.2878,S,14501.7544,E,1,07,02.67,000086.9,M,-001.8,M,,*7E
16-Nov-2006 10:10:16 AM,$GPGGA,231021,3748.2922,S,14501.7536,E,1,07,02.67,000086.7,M,-001.8,M,,*70
16-Nov-2006 10:10:18 AM,$GPGGA,231023,3748.2957,S,14501.7531,E,1,07,02.67,000086.4,M,-001.8,M,,*74
16-Nov-2006 10:10:20 AM,$GPGGA,231025,3748.2987,S,14501.7521,E,1,08,01.77,000086.1,M,-001.8,M,,*76
16-Nov-2006 10:10:22 AM,$GPGGA,231027,3748.3016,S,14501.7515,E,1,08,01.77,000085.9,M,-001.8,M,,*78
16-Nov-2006 10:10:24 AM,$GPGGA,231029,3748.3044,S,14501.7508,E,1,08,01.77,000085.7,M,-001.8,M,,*73
16-Nov-2006 10:10:26 AM,$GPGGA,231031,3748.3068,S,14501.7505,E,1,06,02.99,000085.5,M,-001.8,M,,*76
16-Nov-2006 10:10:28 AM,$GPGGA,231033,3748.3086,S,14501.7503,E,1,06,02.99,000085.1,M,-001.8,M,,*76
16-Nov-2006 10:10:30 AM,$GPGGA,231035,3748.3094,S,14501.7502,E,1,06,03.00,000084.8,M,-001.8,M,,*7B
16-Nov-2006 10:10:32 AM,$GPGGA,231037,3748.3091,S,14501.7496,E,1,07,02.05,000084.7,M,-001.8,M,,*7A
16-Nov-2006 10:10:34 AM,$GPGGA,231039,3748.3088,S,14501.7492,E,1,07,02.05,000084.7,M,-001.8,M,,*78
16-Nov-2006 10:10:37 AM,$GPGGA,231042,3748.3086,S,14501.7488,E,1,07,02.05,000085.0,M,-001.8,M,,*77
16-Nov-2006 10:10:39 AM,$GPGGA,231044,3748.3086,S,14501.7487,E,1,07,02.05,000085.3,M,-001.8,M,,*7D
16-Nov-2006 10:10:43 AM,$GPGGA,231048,3748.3085,S,14501.7484,E,1,07,02.05,000086.0,M,-001.8,M,,*71
16-Nov-2006 10:10:45 AM,$GPGGA,231050,3748.3085,S,14501.7484,E,1,07,02.05,000086.3,M,-001.8,M,,*7B
16-Nov-2006 10:10:47 AM,$GPGGA,231052,3748.3085,S,14501.7483,E,1,07,02.05,000086.8,M,-001.8,M,,*75
16-Nov-2006 10:10:49 AM,$GPGGA,231054,3748.3084,S,14501.7480,E,1,07,02.05,000087.2,M,-001.8,M,,*7A
16-Nov-2006 10:10:51 AM,$GPGGA,231056,3748.3081,S,14501.7481,E,1,08,01.87,000087.5,M,-001.8,M,,*7D
16-Nov-2006 10:10:53 AM,$GPGGA,231058,3748.3079,S,14501.7482,E,1,08,01.87,000087.8,M,-001.8,M,,*7A
16-Nov-2006 10:10:55 AM,$GPGGA,231100,3748.3079,S,14501.7482,E,1,08,01.87,000088.0,M,-001.8,M,,*71
16-Nov-2006 10:10:57 AM,$GPGGA,231102,3748.3083,S,14501.7486,E,1,07,02.49,000088.1,M,-001.8,M,,*7D
16-Nov-2006 10:10:59 AM,$GPGGA,231104,3748.3085,S,14501.7488,E,1,08,01.87,000088.0,M,-001.8,M,,*7C
16-Nov-2006 10:11:01 AM,$GPGGA,231106,3748.3085,S,14501.7489,E,1,08,01.87,000087.8,M,-001.8,M,,*78
16-Nov-2006 10:11:03 AM,$GPGGA,231108,3748.3083,S,14501.7487,E,1,10,01.41,000087.7,M,-001.8,M,,*72
16-Nov-2006 10:11:05 AM,$GPGGA,231110,3748.3085,S,14501.7490,E,1,09,01.52,000087.4,M,-001.8,M,,*72
16-Nov-2006 10:11:07 AM,$GPGGA,231112,3748.3082,S,14501.7487,E,1,10,01.41,000087.2,M,-001.8,M,,*7D
16-Nov-2006 10:11:09 AM,$GPGGA,231114,3748.3081,S,14501.7486,E,1,10,01.41,000087.0,M,-001.8,M,,*7B
16-Nov-2006 10:11:11 AM,$GPGGA,231116,3748.3077,S,14501.7483,E,1,10,01.41,000086.9,M,-001.8,M,,*7D
16-Nov-2006 10:11:14 AM,$GPGGA,231118,3748.3077,S,14501.7482,E,1,10,01.41,000086.9,M,-001.8,M,,*72
16-Nov-2006 10:11:15 AM,$GPGGA,231120,3748.3112,S,14501.7483,E,1,10,01.43,000086.8,M,-001.8,M,,*79
16-Nov-2006 10:11:17 AM,$GPGGA,231122,3748.3186,S,14501.7492,E,1,10,01.41,000087.0,M,-001.8,M,,*7D
16-Nov-2006 10:11:20 AM,$GPGGA,231125,3748.3319,S,14501.7477,E,1,10,01.41,000087.0,M,-001.8,M,,*75
16-Nov-2006 10:11:22 AM,$GPGGA,231127,3748.3405,S,14501.7464,E,1,08,01.87,000086.6,M,-001.8,M,,*7B
16-Nov-2006 10:11:27 AM,$GPGGA,231131,3748.3571,S,14501.7439,E,1,08,01.74,000085.3,M,-001.8,M,,*7C
16-Nov-2006 10:11:28 AM,$GPGGA,231133,3748.3666,S,14501.7425,E,1,09,01.71,000084.4,M,-001.8,M,,*74
16-Nov-2006 10:11:30 AM,$GPGGA,231135,3748.3763,S,14501.7416,E,1,09,01.71,000083.4,M,-001.8,M,,*71
16-Nov-2006 10:11:32 AM,$GPGGA,231137,3748.3849,S,14501.7402,E,1,10,01.43,000082.4,M,-001.8,M,,*79
16-Nov-2006 10:11:34 AM,$GPGGA,231139,3748.3924,S,14501.7391,E,1,10,01.43,000081.8,M,-001.8,M,,*7F
16-Nov-2006 10:11:36 AM,$GPGGA,231141,3748.3965,S,14501.7384,E,1,08,01.81,000081.7,M,-001.8,M,,*79
16-Nov-2006 10:11:38 AM,$GPGGA,231143,3748.3989,S,14501.7377,E,1,08,02.07,000081.6,M,-001.8,M,,*79
16-Nov-2006 10:11:40 AM,$GPGGA,231145,3748.3993,S,14501.7364,E,1,07,02.69,000081.7,M,-001.8,M,,*70
16-Nov-2006 10:11:42 AM,$GPGGA,231147,3748.3993,S,14501.7354,E,1,10,01.41,000082.0,M,-001.8,M,,*7A
16-Nov-2006 10:11:44 AM,$GPGGA,231149,3748.3992,S,14501.7343,E,1,09,01.71,000082.7,M,-001.8,M,,*7F
16-Nov-2006 10:11:46 AM,$GPGGA,231151,3748.3991,S,14501.7347,E,1,09,01.71,000083.4,M,-001.8,M,,*73
16-Nov-2006 10:11:48 AM,$GPGGA,231153,3748.3987,S,14501.7349,E,1,09,01.71,000084.0,M,-001.8,M,,*7B
16-Nov-2006 10:11:50 AM,$GPGGA,231155,3748.3984,S,14501.7351,E,1,09,01.71,000084.6,M,-001.8,M,,*71
16-Nov-2006 10:11:52 AM,$GPGGA,231157,3748.3982,S,14501.7354,E,1,09,01.71,000085.0,M,-001.8,M,,*77
16-Nov-2006 10:11:54 AM,$GPGGA,231159,3748.3982,S,14501.7357,E,1,09,01.71,000085.3,M,-001.8,M,,*79
16-Nov-2006 10:11:57 AM,$GPGGA,231202,3748.3980,S,14501.7363,E,1,09,01.71,000085.5,M,-001.8,M,,*77
16-Nov-2006 10:11:59 AM,$GPGGA,231204,3748.3980,S,14501.7365,E,1,09,01.71,000085.4,M,-001.8,M,,*76
16-Nov-2006 10:12:03 AM,$GPGGA,231208,3748.3979,S,14501.7368,E,1,09,01.71,000085.1,M,-001.8,M,,*74
16-Nov-2006 10:12:05 AM,$GPGGA,231210,3748.3980,S,14501.7372,E,1,09,01.71,000084.8,M,-001.8,M,,*78
16-Nov-2006 10:12:07 AM,$GPGGA,231212,3748.3981,S,14501.7373,E,1,09,01.71,000084.4,M,-001.8,M,,*76
16-Nov-2006 10:12:09 AM,$GPGGA,231214,3748.3982,S,14501.7375,E,1,09,01.71,000084.0,M,-001.8,M,,*71
16-Nov-2006 10:12:11 AM,$GPGGA,231216,3748.3983,S,14501.7376,E,1,09,01.71,000083.6,M,-001.8,M,,*70
16-Nov-2006 10:12:13 AM,$GPGGA,231218,3748.3984,S,14501.7375,E,1,09,01.72,000083.2,M,-001.8,M,,*7D
16-Nov-2006 10:12:15 AM,$GPGGA,231220,3748.3985,S,14501.7375,E,1,09,01.72,000082.8,M,-001.8,M,,*7C
16-Nov-2006 10:12:17 AM,$GPGGA,231222,3748.3987,S,14501.7374,E,1,09,01.72,000082.5,M,-001.8,M,,*70
16-Nov-2006 10:12:19 AM,$GPGGA,231224,3748.3988,S,14501.7372,E,1,09,01.72,000082.2,M,-001.8,M,,*78
16-Nov-2006 10:12:21 AM,$GPGGA,231226,3748.3990,S,14501.7370,E,1,09,01.72,000081.9,M,-001.8,M,,*79
16-Nov-2006 10:12:23 AM,$GPGGA,231228,3748.3993,S,14501.7368,E,1,09,01.72,000081.6,M,-001.8,M,,*72
16-Nov-2006 10:12:25 AM,$GPGGA,231230,3748.3996,S,14501.7367,E,1,09,01.72,000081.3,M,-001.8,M,,*74
16-Nov-2006 10:12:27 AM,$GPGGA,231232,3748.3985,S,14501.7349,E,1,10,01.35,000081.5,M,-001.8,M,,*75
16-Nov-2006 10:12:30 AM,$GPGGA,231234,3748.3974,S,14501.7333,E,1,10,01.35,000082.0,M,-001.8,M,,*76
16-Nov-2006 10:12:32 AM,$GPGGA,231236,3748.3973,S,14501.7328,E,1,09,01.72,000082.8,M,-001.8,M,,*7A
16-Nov-2006 10:12:34 AM,$GPGGA,231238,3748.3978,S,14501.7329,E,1,09,01.72,000083.3,M,-001.8,M,,*74
16-Nov-2006 10:12:35 AM,$GPGGA,231240,3748.3987,S,14501.7332,E,1,10,01.43,000083.7,M,-001.8,M,,*7F
16-Nov-2006 10:12:37 AM,$GPGGA,231242,3748.3991,S,14501.7333,E,1,08,01.75,000083.9,M,-001.8,M,,*79
16-Nov-2006 10:12:40 AM,$GPGGA,231245,3748.3991,S,14501.7330,E,1,08,01.75,000084.2,M,-001.8,M,,*71
16-Nov-2006 10:12:42 AM,$GPGGA,231247,3748.3992,S,14501.7329,E,1,08,01.75,000084.4,M,-001.8,M,,*7E
16-Nov-2006 10:12:46 AM,$GPGGA,231251,3748.3994,S,14501.7330,E,1,09,01.62,000084.5,M,-001.8,M,,*71
16-Nov-2006 10:12:48 AM,$GPGGA,231253,3748.3996,S,14501.7333,E,1,09,01.62,000084.4,M,-001.8,M,,*73
16-Nov-2006 10:12:50 AM,$GPGGA,231255,3748.3997,S,14501.7335,E,1,09,01.62,000084.3,M,-001.8,M,,*75
16-Nov-2006 10:12:52 AM,$GPGGA,231257,3748.3997,S,14501.7332,E,1,09,01.62,000084.3,M,-001.8,M,,*70
16-Nov-2006 10:12:54 AM,$GPGGA,231259,3748.4000,S,14501.7335,E,1,08,02.09,000084.2,M,-001.8,M,,*77
16-Nov-2006 10:12:56 AM,$GPGGA,231301,3748.4017,S,14501.7340,E,1,07,02.52,000083.9,M,-001.8,M,,*72
16-Nov-2006 10:12:58 AM,$GPGGA,231303,3748.4045,S,14501.7354,E,1,09,01.50,000083.7,M,-001.8,M,,*73
16-Nov-2006 10:13:00 AM,$GPGGA,231305,3748.4093,S,14501.7361,E,1,08,01.76,000083.4,M,-001.8,M,,*7E
16-Nov-2006 10:13:02 AM,$GPGGA,231307,3748.4149,S,14501.7349,E,1,07,01.85,000083.0,M,-001.8,M,,*77
16-Nov-2006 10:13:04 AM,$GPGGA,231309,3748.4236,S,14501.7365,E,1,10,01.46,000082.3,M,-001.8,M,,*77
16-Nov-2006 10:13:06 AM,$GPGGA,231311,3748.4330,S,14501.7380,E,1,09,01.60,000081.4,M,-001.8,M,,*7A
16-Nov-2006 10:13:08 AM,$GPGGA,231313,3748.4416,S,14501.7377,E,1,09,01.46,000080.6,M,-001.8,M,,*74
16-Nov-2006 10:13:10 AM,$GPGGA,231315,3748.4496,S,14501.7376,E,1,09,01.72,000080.3,M,-001.8,M,,*79
16-Nov-2006 10:13:12 AM,$GPGGA,231317,3748.4547,S,14501.7364,E,1,09,01.72,000080.7,M,-001.8,M,,*71
16-Nov-2006 10:13:14 AM,$GPGGA,231319,3748.4588,S,14501.7365,E,1,08,01.82,000080.7,M,-001.8,M,,*73
16-Nov-2006 10:13:17 AM,$GPGGA,231322,3748.4657,S,14501.7353,E,1,08,02.09,000080.6,M,-001.8,M,,*7E
16-Nov-2006 10:13:20 AM,$GPGGA,231324,3748.4731,S,14501.7328,E,1,08,01.76,000080.6,M,-001.8,M,,*7E
16-Nov-2006 10:13:23 AM,$GPGGA,231328,3748.4913,S,14501.7291,E,1,08,01.82,000079.8,M,-001.8,M,,*7C
16-Nov-2006 10:13:26 AM,$GPGGA,231330,3748.5008,S,14501.7272,E,1,08,01.82,000079.7,M,-001.8,M,,*75
16-Nov-2006 10:13:28 AM,$GPGGA,231332,3748.5111,S,14501.7261,E,1,08,01.82,000079.1,M,-001.8,M,,*7A
16-Nov-2006 10:13:29 AM,$GPGGA,231334,3748.5221,S,14501.7248,E,1,08,01.76,000078.1,M,-001.8,M,,*7D
16-Nov-2006 10:13:31 AM,$GPGGA,231336,3748.5334,S,14501.7234,E,1,08,01.76,000077.2,M,-001.8,M,,*7D
16-Nov-2006 10:13:33 AM,$GPGGA,231338,3748.5456,S,14501.7218,E,1,07,02.11,000076.0,M,-001.8,M,,*70
16-Nov-2006 10:13:36 AM,$GPGGA,231340,3748.5581,S,14501.7202,E,1,09,01.60,000074.4,M,-001.8,M,,*72
16-Nov-2006 10:13:38 AM,$GPGGA,231342,3748.5706,S,14501.7170,E,1,09,01.63,000073.5,M,-001.8,M,,*7E
16-Nov-2006 10:13:39 AM,$GPGGA,231344,3748.5832,S,14501.7148,E,1,08,02.10,000072.7,M,-001.8,M,,*7E
16-Nov-2006 10:13:41 AM,$GPGGA,231346,3748.5955,S,14501.7126,E,1,08,02.10,000071.5,M,-001.8,M,,*75
16-Nov-2006 10:13:43 AM,$GPGGA,231348,3748.6081,S,14501.7101,E,1,09,01.72,000070.5,M,-001.8,M,,*7A
16-Nov-2006 10:13:45 AM,$GPGGA,231350,3748.6206,S,14501.7080,E,1,09,01.53,000069.4,M,-001.8,M,,*7C
16-Nov-2006 10:13:47 AM,$GPGGA,231352,3748.6329,S,14501.7060,E,1,08,01.76,000068.2,M,-001.8,M,,*7D
16-Nov-2006 10:13:50 AM,$GPGGA,231354,3748.6445,S,14501.7036,E,1,09,01.60,000067.0,M,-001.8,M,,*7E
16-Nov-2006 10:13:52 AM,$GPGGA,231356,3748.6556,S,14501.7009,E,1,09,01.63,000066.2,M,-001.8,M,,*73
16-Nov-2006 10:13:53 AM,$GPGGA,231358,3748.6667,S,14501.6990,E,1,08,01.76,000065.2,M,-001.8,M,,*72
16-Nov-2006 10:13:55 AM,$GPGGA,231400,3748.6773,S,14501.6971,E,1,08,01.76,000064.1,M,-001.8,M,,*71
16-Nov-2006 10:13:57 AM,$GPGGA,231402,3748.6875,S,14501.6952,E,1,09,01.63,000063.1,M,-001.8,M,,*79
16-Nov-2006 10:14:00 AM,$GPGGA,231405,3748.7005,S,14501.6934,E,1,09,01.53,000061.5,M,-001.8,M,,*75
16-Nov-2006 10:14:02 AM,$GPGGA,231407,3748.7060,S,14501.6926,E,1,08,01.82,000060.7,M,-001.8,M,,*79
16-Nov-2006 10:14:06 AM,$GPGGA,231411,3748.7122,S,14501.6921,E,1,10,01.43,000059.5,M,-001.8,M,,*72
16-Nov-2006 10:14:09 AM,$GPGGA,231413,3748.7147,S,14501.6919,E,1,10,01.43,000058.8,M,-001.8,M,,*74
16-Nov-2006 10:14:11 AM,$GPGGA,231415,3748.7193,S,14501.6913,E,1,09,01.53,000058.1,M,-001.8,M,,*71
16-Nov-2006 10:14:13 AM,$GPGGA,231417,3748.7248,S,14501.6910,E,1,10,01.43,000057.5,M,-001.8,M,,*77
16-Nov-2006 10:14:15 AM,$GPGGA,231419,3748.7289,S,14501.6902,E,1,10,01.43,000057.0,M,-001.8,M,,*72
16-Nov-2006 10:14:17 AM,$GPGGA,231421,3748.7316,S,14501.6898,E,1,10,01.43,000056.4,M,-001.8,M,,*79
16-Nov-2006 10:14:19 AM,$GPGGA,231423,3748.7328,S,14501.6897,E,1,10,01.43,000055.9,M,-001.8,M,,*77
16-Nov-2006 10:14:21 AM,$GPGGA,231425,3748.7339,S,14501.6896,E,1,10,01.43,000055.4,M,-001.8,M,,*7D
16-Nov-2006 10:14:23 AM,$GPGGA,231427,3748.7366,S,14501.6890,E,1,10,01.43,000054.9,M,-001.8,M,,*7F
16-Nov-2006 10:14:24 AM,$GPGGA,231429,3748.7413,S,14501.6883,E,1,09,01.53,000054.4,M,-001.8,M,,*72
16-Nov-2006 10:14:26 AM,$GPGGA,231431,3748.7472,S,14501.6873,E,1,09,01.53,000053.8,M,-001.8,M,,*78
16-Nov-2006 10:14:28 AM,$GPGGA,231433,3748.7539,S,14501.6863,E,1,10,01.43,000053.0,M,-001.8,M,,*74
16-Nov-2006 10:14:30 AM,$GPGGA,231435,3748.7630,S,14501.6847,E,1,09,01.53,000052.3,M,-001.8,M,,*75
16-Nov-2006 10:14:32 AM,$GPGGA,231437,3748.7750,S,14501.6825,E,1,09,01.53,000051.8,M,-001.8,M,,*7C
16-Nov-2006 10:14:34 AM,$GPGGA,231439,3748.7889,S,14501.6801,E,1,09,01.72,000051.6,M,-001.8,M,,*72
16-Nov-2006 10:14:37 AM,$GPGGA,231442,3748.8095,S,14501.6763,E,1,09,01.53,000051.6,M,-001.8,M,,*7C
16-Nov-2006 10:14:39 AM,$GPGGA,231444,3748.8224,S,14501.6744,E,1,10,01.43,000051.7,M,-001.8,M,,*7F
16-Nov-2006 10:14:43 AM,$GPGGA,231448,3748.8461,S,14501.6702,E,1,10,01.43,000052.0,M,-001.8,M,,*72
16-Nov-2006 10:14:45 AM,$GPGGA,231450,3748.8568,S,14501.6672,E,1,10,01.43,000052.1,M,-001.8,M,,*74
16-Nov-2006 10:14:47 AM,$GPGGA,231452,3748.8678,S,14501.6653,E,1,09,01.72,000052.2,M,-001.8,M,,*7E
16-Nov-2006 10:14:49 AM,$GPGGA,231454,3748.8792,S,14501.6629,E,1,08,01.82,000052.3,M,-001.8,M,,*7F
16-Nov-2006 10:14:51 AM,$GPGGA,231456,3748.8913,S,14501.6606,E,1,08,01.77,000052.4,M,-001.8,M,,*7A
16-Nov-2006 10:14:53 AM,$GPGGA,231458,3748.9040,S,14501.6580,E,1,08,02.11,000052.6,M,-001.8,M,,*76
16-Nov-2006 10:14:55 AM,$GPGGA,231500,3748.9171,S,14501.6553,E,1,09,01.72,000052.6,M,-001.8,M,,*70
16-Nov-2006 10:14:57 AM,$GPGGA,231502,3748.9305,S,14501.6522,E,1,08,01.82,000052.8,M,-001.8,M,,*75
16-Nov-2006 10:14:59 AM,$GPGGA,231504,3748.9432,S,14501.6492,E,1,08,01.77,000053.1,M,-001.8,M,,*78
16-Nov-2006 10:15:01 AM,$GPGGA,231506,3748.9559,S,14501.6467,E,1,08,01.82,000053.3,M,-001.8,M,,*74
16-Nov-2006 10:15:03 AM,$GPGGA,231508,3748.9689,S,14501.6443,E,1,09,01.53,000053.2,M,-001.8,M,,*7E
16-Nov-2006 10:15:05 AM,$GPGGA,231510,3748.9823,S,14501.6416,E,1,09,01.53,000053.1,M,-001.8,M,,*7A
16-Nov-2006 10:15:07 AM,$GPGGA,231512,3748.9961,S,14501.6391,E,1,10,01.43,000052.8,M,-001.8,M,,*76
16-Nov-2006 10:15:09 AM,$GPGGA,231514,3749.0102,S,14501.6369,E,1,09,01.72,000052.5,M,-001.8,M,,*75
16-Nov-2006 10:15:11 AM,$GPGGA,231516,3749.0244,S,14501.6344,E,1,09,01.53,000052.0,M,-001.8,M,,*7F
16-Nov-2006 10:15:14 AM,$GPGGA,231519,3749.0458,S,14501.6307,E,1,09,01.53,000050.8,M,-001.8,M,,*76
16-Nov-2006 10:15:16 AM,$GPGGA,231521,3749.0601,S,14501.6281,E,1,09,01.53,000049.8,M,-001.8,M,,*74
16-Nov-2006 10:15:20 AM,$GPGGA,231525,3749.0892,S,14501.6232,E,1,08,01.78,000047.8,M,-001.8,M,,*7A
16-Nov-2006 10:15:22 AM,$GPGGA,231527,3749.1036,S,14501.6201,E,1,10,01.43,000046.8,M,-001.8,M,,*7F
16-Nov-2006 10:15:24 AM,$GPGGA,231529,3749.1187,S,14501.6176,E,1,08,01.78,000045.8,M,-001.8,M,,*7B
16-Nov-2006 10:15:26 AM,$GPGGA,231531,3749.1334,S,14501.6140,E,1,10,01.43,000044.7,M,-001.8,M,,*72
16-Nov-2006 10:15:28 AM,$GPGGA,231533,3749.1480,S,14501.6113,E,1,09,01.53,000043.6,M,-001.8,M,,*71
16-Nov-2006 10:15:30 AM,$GPGGA,231535,3749.1622,S,14501.6080,E,1,09,01.53,000042.6,M,-001.8,M,,*77
16-Nov-2006 10:15:32 AM,$GPGGA,231537,3749.1764,S,14501.6060,E,1,09,01.53,000041.9,M,-001.8,M,,*74
16-Nov-2006 10:15:34 AM,$GPGGA,231539,3749.1896,S,14501.6038,E,1,09,01.53,000041.4,M,-001.8,M,,*78
16-Nov-2006 10:15:36 AM,$GPGGA,231541,3749.2015,S,14501.6015,E,1,08,01.78,000040.9,M,-001.8,M,,*7C
16-Nov-2006 10:15:38 AM,$GPGGA,231543,3749.2128,S,14501.5996,E,1,10,01.43,000040.6,M,-001.8,M,,*7E
16-Nov-2006 10:15:40 AM,$GPGGA,231545,3749.2235,S,14501.5986,E,1,09,01.73,000040.5,M,-001.8,M,,*7E
16-Nov-2006 10:15:42 AM,$GPGGA,231547,3749.2340,S,14501.5975,E,1,09,01.53,000040.4,M,-001.8,M,,*70
16-Nov-2006 10:15:44 AM,$GPGGA,231549,3749.2450,S,14501.5957,E,1,09,01.50,000040.4,M,-001.8,M,,*7B
16-Nov-2006 10:15:46 AM,$GPGGA,231551,3749.2563,S,14501.5934,E,1,09,01.63,000040.5,M,-001.8,M,,*77
16-Nov-2006 10:15:49 AM,$GPGGA,231553,3749.2678,S,14501.5910,E,1,10,01.45,000040.5,M,-001.8,M,,*76
16-Nov-2006 10:15:51 AM,$GPGGA,231555,3749.2783,S,14501.5891,E,1,11,01.29,000040.7,M,-001.8,M,,*74
16-Nov-2006 10:15:52 AM,$GPGGA,231557,3749.2858,S,14501.5882,E,1,09,01.54,000040.9,M,-001.8,M,,*70
16-Nov-2006 10:15:54 AM,$GPGGA,231559,3749.2899,S,14501.5898,E,1,08,01.83,000041.0,M,-001.8,M,,*7B
16-Nov-2006 10:15:57 AM,$GPGGA,231602,3749.2924,S,14501.6030,E,1,10,01.43,000041.3,M,-001.8,M,,*7E
16-Nov-2006 10:15:59 AM,$GPGGA,231604,3749.2944,S,14501.6175,E,1,09,01.59,000041.5,M,-001.8,M,,*7B
16-Nov-2006 10:16:03 AM,$GPGGA,231608,3749.2984,S,14501.6507,E,1,08,01.91,000041.7,M,-001.8,M,,*7D
16-Nov-2006 10:16:05 AM,$GPGGA,231610,3749.2999,S,14501.6671,E,1,08,01.91,000041.9,M,-001.8,M,,*74
16-Nov-2006 10:16:07 AM,$GPGGA,231612,3749.3006,S,14501.6830,E,1,07,02.03,000043.3,M,-001.8,M,,*7C
16-Nov-2006 10:16:09 AM,$GPGGA,231614,3749.3029,S,14501.6999,E,1,08,01.90,000044.2,M,-001.8,M,,*75
16-Nov-2006 10:16:11 AM,$GPGGA,231616,3749.3054,S,14501.7173,E,1,08,01.90,000045.0,M,-001.8,M,,*73
16-Nov-2006 10:16:13 AM,$GPGGA,231618,3749.3080,S,14501.7333,E,1,09,01.46,000046.1,M,-001.8,M,,*7A
16-Nov-2006 10:16:15 AM,$GPGGA,231620,3749.3098,S,14501.7505,E,1,08,01.90,000047.1,M,-001.8,M,,*70
16-Nov-2006 10:16:17 AM,$GPGGA,231622,3749.3117,S,14501.7672,E,1,08,01.77,000048.1,M,-001.8,M,,*71
16-Nov-2006 10:16:19 AM,$GPGGA,231624,3749.3132,S,14501.7841,E,1,07,02.47,000048.8,M,-001.8,M,,*78
16-Nov-2006 10:16:21 AM,$GPGGA,231626,3749.3156,S,14501.8015,E,1,09,01.63,000049.2,M,-001.8,M,,*7E
16-Nov-2006 10:16:23 AM,$GPGGA,231628,3749.3178,S,14501.8189,E,1,08,01.90,000049.2,M,-001.8,M,,*75
16-Nov-2006 10:16:25 AM,$GPGGA,231630,3749.3199,S,14501.8357,E,1,07,02.47,000049.1,M,-001.8,M,,*77
16-Nov-2006 10:16:27 AM,$GPGGA,231632,3749.3219,S,14501.8528,E,1,08,01.90,000049.1,M,-001.8,M,,*76
16-Nov-2006 10:16:29 AM,$GPGGA,231634,3749.3241,S,14501.8708,E,1,08,02.37,000049.3,M,-001.8,M,,*71
16-Nov-2006 10:16:31 AM,$GPGGA,231636,3749.3254,S,14501.8873,E,1,09,01.71,000049.1,M,-001.8,M,,*76
16-Nov-2006 10:16:33 AM,$GPGGA,231638,3749.3277,S,14501.9033,E,1,08,01.90,000048.8,M,-001.8,M,,*72
16-Nov-2006 10:16:35 AM,$GPGGA,231640,3749.3311,S,14501.9181,E,1,08,01.90,000048.8,M,-001.8,M,,*74
16-Nov-2006 10:16:37 AM,$GPGGA,231642,3749.3329,S,14501.9342,E,1,05,03.26,000049.0,M,-001.8,M,,*7B
16-Nov-2006 10:16:40 AM,$GPGGA,231645,3749.3366,S,14501.9593,E,1,07,01.95,000049.9,M,-001.8,M,,*7C
16-Nov-2006 10:16:46 AM,$GPGGA,231651,3749.3425,S,14502.0109,E,1,07,02.02,000051.7,M,-001.8,M,,*7E
16-Nov-2006 10:16:48 AM,$GPGGA,231653,3749.3439,S,14502.0268,E,1,07,02.02,000052.8,M,-001.8,M,,*79
16-Nov-2006 10:16:50 AM,$GPGGA,231655,3749.3462,S,14502.0425,E,1,07,02.02,000053.4,M,-001.8,M,,*73
16-Nov-2006 10:16:52 AM,$GPGGA,231657,3749.3483,S,14502.0561,E,1,07,02.75,000053.9,M,-001.8,M,,*72
16-Nov-2006 10:16:54 AM,$GPGGA,231659,3749.3497,S,14502.0680,E,1,07,02.02,000054.3,M,-001.8,M,,*78
16-Nov-2006 10:16:56 AM,$GPGGA,231701,3749.3501,S,14502.0751,E,1,07,02.02,000054.3,M,-001.8,M,,*77
16-Nov-2006 10:16:58 AM,$GPGGA,231703,3749.3502,S,14502.0788,E,1,08,01.76,000054.4,M,-001.8,M,,*7A
16-Nov-2006 10:17:00 AM,$GPGGA,231705,3749.3498,S,14502.0795,E,1,08,01.77,000054.8,M,-001.8,M,,*7F
16-Nov-2006 10:17:02 AM,$GPGGA,231707,3749.3498,S,14502.0795,E,1,08,01.77,000054.9,M,-001.8,M,,*7C
16-Nov-2006 10:17:04 AM,$GPGGA,231709,3749.3498,S,14502.0793,E,1,08,01.77,000055.2,M,-001.8,M,,*7E
16-Nov-2006 10:17:06 AM,$GPGGA,231711,3749.3498,S,14502.0791,E,1,08,01.76,000055.4,M,-001.8,M,,*72
16-Nov-2006 10:17:08 AM,$GPGGA,231713,3749.3497,S,14502.0796,E,1,08,01.76,000055.8,M,-001.8,M,,*74
16-Nov-2006 10:17:10 AM,$GPGGA,231715,3749.3500,S,14502.0828,E,1,08,01.76,000056.1,M,-001.8,M,,*7D
16-Nov-2006 10:17:12 AM,$GPGGA,231717,3749.3507,S,14502.0893,E,1,06,02.98,000056.3,M,-001.8,M,,*77
16-Nov-2006 10:17:14 AM,$GPGGA,231719,3749.3518,S,14502.0980,E,1,07,02.76,000056.7,M,-001.8,M,,*71
16-Nov-2006 10:17:17 AM,$GPGGA,231722,3749.3540,S,14502.1134,E,1,08,01.76,000057.1,M,-001.8,M,,*79
16-Nov-2006 10:17:19 AM,$GPGGA,231724,3749.3550,S,14502.1240,E,1,07,02.76,000057.0,M,-001.8,M,,*73
16-Nov-2006 10:17:23 AM,$GPGGA,231728,3749.3576,S,14502.1482,E,1,05,03.71,000057.7,M,-001.8,M,,*70
16-Nov-2006 10:17:25 AM,$GPGGA,231730,3749.3596,S,14502.1634,E,1,06,02.94,000058.3,M,-001.8,M,,*7A
16-Nov-2006 10:17:27 AM,$GPGGA,231732,3749.3617,S,14502.1788,E,1,07,02.01,000058.4,M,-001.8,M,,*7E
16-Nov-2006 10:17:29 AM,$GPGGA,231734,3749.3635,S,14502.1928,E,1,06,02.97,000058.3,M,-001.8,M,,*75
16-Nov-2006 10:17:31 AM,$GPGGA,231736,3749.3631,S,14502.2042,E,1,06,02.28,000058.9,M,-001.8,M,,*7B
16-Nov-2006 10:17:33 AM,$GPGGA,231738,3749.3646,S,14502.2138,E,1,07,02.01,000059.6,M,-001.8,M,,*7D
16-Nov-2006 10:17:35 AM,$GPGGA,231740,3749.3641,S,14502.2190,E,1,06,02.94,000059.9,M,-001.8,M,,*75
16-Nov-2006 10:17:37 AM,$GPGGA,231742,3749.3608,S,14502.2219,E,1,07,02.11,000060.1,M,-001.8,M,,*76
16-Nov-2006 10:17:39 AM,$GPGGA,231744,3749.3540,S,14502.2232,E,1,06,02.37,000060.5,M,-001.8,M,,*77
16-Nov-2006 10:17:41 AM,$GPGGA,231746,3749.3468,S,14502.2252,E,1,05,03.76,000060.5,M,-001.8,M,,*7F
16-Nov-2006 10:17:43 AM,$GPGGA,231748,3749.3400,S,14502.2257,E,1,06,03.37,000060.4,M,-001.8,M,,*7D
16-Nov-2006 10:17:45 AM,$GPGGA,231750,3749.3344,S,14502.2273,E,1,08,02.15,000060.3,M,-001.8,M,,*7D
16-Nov-2006 10:17:47 AM,$GPGGA,231752,3749.3284,S,14502.2291,E,1,06,02.36,000060.7,M,-001.8,M,,*75
16-Nov-2006 10:17:49 AM,$GPGGA,231754,3749.3245,S,14502.2254,E,1,07,02.25,000061.3,M,-001.8,M,,*71
16-Nov-2006 10:17:51 AM,$GPGGA,231756,3749.3237,S,14502.2178,E,1,06,02.92,000061.7,M,-001.8,M,,*72
16-Nov-2006 10:17:53 AM,$GPGGA,231758,3749.3213,S,14502.2086,E,1,05,03.03,000062.1,M,-001.8,M,,*75
16-Nov-2006 10:17:55 AM,$GPGGA,231800,3749.3206,S,14502.1989,E,1,05,03.03,000062.0,M,-001.8,M,,*77
16-Nov-2006 10:17:57 AM,$GPGGA,231802,3749.3204,S,14502.1912,E,1,04,03.48,000061.7,M,-001.8,M,,*7F
16-Nov-2006 10:18:00 AM,$GPGGA,231805,3749.3169,S,14502.1846,E,1,06,03.38,000061.3,M,-001.8,M,,*71
16-Nov-2006 10:18:02 AM,$GPGGA,231807,3749.3128,S,14502.1867,E,1,06,03.10,000061.0,M,-001.8,M,,*7C
16-Nov-2006 10:18:04 AM,$GPGGA,231809,3749.3121,S,14502.1914,E,1,07,02.27,000060.6,M,-001.8,M,,*7D
16-Nov-2006 10:18:06 AM,$GPGGA,231811,3749.3126,S,14502.1950,E,1,06,03.36,000060.4,M,-001.8,M,,*71
16-Nov-2006 10:18:08 AM,$GPGGA,231813,3749.3137,S,14502.1999,E,1,07,02.76,000060.1,M,-001.8,M,,*77
16-Nov-2006 10:18:10 AM,$GPGGA,231815,3749.3143,S,14502.2065,E,1,08,01.76,000059.8,M,-001.8,M,,*74
16-Nov-2006 10:18:12 AM,$GPGGA,231817,3749.3140,S,14502.2152,E,1,07,02.00,000059.5,M,-001.8,M,,*70
16-Nov-2006 10:18:14 AM,$GPGGA,231819,3749.3147,S,14502.2227,E,1,06,02.96,000059.0,M,-001.8,M,,*73
16-Nov-2006 10:18:16 AM,$GPGGA,231821,3749.3169,S,14502.2287,E,1,07,02.76,000058.7,M,-001.8,M,,*77
16-Nov-2006 10:18:18 AM,$GPGGA,231823,3749.3207,S,14502.2306,E,1,07,01.92,000058.6,M,-001.8,M,,*7E
16-Nov-2006 10:18:20 AM,$GPGGA,231825,3749.3264,S,14502.2298,E,1,07,01.92,000058.8,M,-001.8,M,,*75
16-Nov-2006 10:18:22 AM,$GPGGA,231827,3749.3312,S,14502.2282,E,1,07,02.28,000059.2,M,-001.8,M,,*75
16-Nov-2006 10:18:24 AM,$GPGGA,231829,3749.3364,S,14502.2242,E,1,08,01.81,000059.6,M,-001.8,M,,*7D
16-Nov-2006 10:18:26 AM,$GPGGA,231831,3749.3409,S,14502.2223,E,1,08,02.16,000060.3,M,-001.8,M,,*7D
16-Nov-2006 10:18:28 AM,$GPGGA,231833,3749.3429,S,14502.2226,E,1,06,02.69,000060.9,M,-001.8,M,,*74
16-Nov-2006 10:18:30 AM,$GPGGA,231835,3749.3410,S,14502.2179,E,1,06,02.42,000061.5,M,-001.8,M,,*75
16-Nov-2006 10:18:32 AM,$GPGGA,231837,3749.3392,S,14502.2184,E,1,05,08.13,000061.7,M,-001.8,M,,*77
16-Nov-2006 10:18:34 AM,$GPGGA,231839,3749.3362,S,14502.2210,E,1,07,02.28,000061.9,M,-001.8,M,,*76
16-Nov-2006 10:18:37 AM,$GPGGA,231842,3749.3302,S,14502.2218,E,1,09,01.63,000062.4,M,-001.8,M,,*78
16-Nov-2006 10:18:39 AM,$GPGGA,231844,3749.3275,S,14502.2237,E,1,06,02.92,000062.8,M,-001.8,M,,*7C
16-Nov-2006 10:18:43 AM,$GPGGA,231848,3749.3219,S,14502.2279,E,1,08,01.76,000063.9,M,-001.8,M,,*77
16-Nov-2006 10:18:45 AM,$GPGGA,231850,3749.3146,S,14502.2389,E,1,04,04.43,000064.6,M,-001.8,M,,*7E
16-Nov-2006 10:18:47 AM,$GPGGA,231852,3749.3152,S,14502.2400,E,1,06,02.17,000065.5,M,-001.8,M,,*78
16-Nov-2006 10:18:49 AM,$GPGGA,231854,3749.3170,S,14502.2393,E,1,04,06.23,000067.6,M,-001.8,M,,*73
16-Nov-2006 10:18:51 AM,$GPGGA,231856,3749.3187,S,14502.2408,E,1,03,04.76,000067.6,M,-001.8,M,,*79
16-Nov-2006 10:19:20 AM,$GPGGA,231925,3749.3290,S,14502.2458,E,1,02,05.91,000067.6,M,-001.8,M,,*75
16-Nov-2006 10:19:22 AM,$GPGGA,231927,3749.3289,S,14502.2462,E,1,02,05.91,000067.6,M,-001.8,M,,*76
16-Nov-2006 10:19:28 AM,$GPGGA,231933,3749.3330,S,14502.2488,E,1,03,04.72,000067.6,M,-001.8,M,,*79
16-Nov-2006 10:19:30 AM,$GPGGA,231935,3749.3357,S,14502.2479,E,1,04,02.56,000067.6,M,-001.8,M,,*77
16-Nov-2006 10:19:32 AM,$GPGGA,231937,3749.3340,S,14502.2456,E,1,04,02.56,000067.6,M,-001.8,M,,*7E
16-Nov-2006 10:19:34 AM,$GPGGA,231939,3749.3328,S,14502.2437,E,1,04,02.56,000067.6,M,-001.8,M,,*79
16-Nov-2006 10:19:36 AM,$GPGGA,231941,3749.3323,S,14502.2425,E,1,03,04.02,000067.6,M,-001.8,M,,*7E
16-Nov-2006 10:19:38 AM,$GPGGA,231943,3749.3321,S,14502.2422,E,1,03,04.02,000067.6,M,-001.8,M,,*79
16-Nov-2006 10:19:40 AM,$GPGGA,231945,3749.3315,S,14502.2416,E,1,04,02.56,000067.6,M,-001.8,M,,*7F
16-Nov-2006 10:19:42 AM,$GPGGA,231947,3749.3314,S,14502.2418,E,1,04,02.56,000067.6,M,-001.8,M,,*72
16-Nov-2006 10:19:44 AM,$GPGGA,231949,3749.3310,S,14502.2419,E,1,04,02.56,000067.6,M,-001.8,M,,*79
16-Nov-2006 10:19:46 AM,$GPGGA,231951,3749.3305,S,14502.2420,E,1,04,02.56,000067.6,M,-001.8,M,,*7E
16-Nov-2006 10:19:48 AM,$GPGGA,231953,3749.3301,S,14502.2423,E,1,04,02.57,000067.6,M,-001.8,M,,*7A
16-Nov-2006 10:19:50 AM,$GPGGA,231955,3749.3298,S,14502.2429,E,1,04,02.57,000067.6,M,-001.8,M,,*77
16-Nov-2006 10:19:52 AM,$GPGGA,231957,3749.3295,S,14502.2434,E,1,04,02.57,000067.6,M,-001.8,M,,*74
